[
    {
        "id": 0,
        "shortLabel": "Afghanistan",
        "longLabel": "  la République islamique d’Afghanistan",
        "listLabel": "Afghanistan",
        "inhabitant": "Afghan, -e",
        "latitude": "33.927125",
        "longitude": "67.721655",
        "capital": {
            "name": "Kaboul",
            "latitude": "34.5281300",
            "longitude": "69.1723300"
            
        },
        "diplomatic-or-consular-headquarters": [{
                "name": "Kaboul",
                "latitude": "34.5281300",
                "longitude": "69.1723300"
                
            }
        ]
    }, 
    {
        "id": 1,
        "shortLabel": "Afrique du Sud",
        "longLabel": "la République d’Afrique du Sud",
        "listLabel": "Afrique du Sud",
        "inhabitant": "Sudafricain, -e ou Sud-Africain, -e",
        "latitude": "-30.559482",        
        "longitude": "22.937506",        
        "capital": {
            "name": "Prétoria",
            "latitude": "-25.7448600",
            "longitude": "28.1878300"
        },
        "diplomatic-or-consular-headquarters": [
            {
                "name": "Prétoria",
                "latitude": "-25.7448600",
                "longitude": "28.1878300"
            },
            {
                "name": "Le Cap",
                "latitude": "",
                "longitude": ""
            },
            {
                "name": "Johannesbourg",
                "latitude": "",
                "longitude": ""
            }
        ],
        "observation": "1. On trouve aussi les variantes « la République sud-africaine » (ONU) et « Pretoria ». 2. Prétoria est le siège du gouvernement ; Le Cap est le siège du parlement."
    },
    {
        "id": 2,
        "shortLabel": "Albanie",
        "longLabel": "la République d’Albanie",
        "listLabel": "Albanie",
        "inhabitant": "Albanais, -e",
        "capital": {
            "name": "Tirana",
            "latitude": "41.3275000",
            "longitude": "19.8188900"
        },
        "diplomatic-or-consular-headquarters": [{
            "name": "Tirana",
            "latitude": "41.3275000",
            "longitude": "19.8188900"
        }],
        "observation": ""
    }, 
    {
        "id": 3,
        "shortLabel": "Algérie",
        "longLabel": "la République algérienne démocratique et populaire",
        "listLabel": "Algérie",
        "inhabitant": "Algérien, -ienne",
        "capital": {
            "name": "Alger",
            "latitude": "36.7525000",
            "longitude": "3.0419700"
        },
        "diplomatic-or-consular-headquarters": [
            {
                "name": "Alger",
                "latitude": "36.7525000",
                "longitude": "3.0419700"
            }, 
            {
                "name": "Annaba",
                "latitude": "36.9000000",
                "longitude": "7.7666700"
            }, 
            {
                "name": "Oran",
                "latitude": "35.6911100",
                "longitude": "-0.6416700"
            }
        ],
        "observation": ""
    }, 
    {
        "id": 4,
        "shortLabel": "Allemagne",
        "longLabel": "la République fédérale d’Allemagne",
        "listLabel": "Allemagne",
        "inhabitant": "Allemand, -e",
        "capital": {
            "name": "Berlin",
            "latitude": "52.5243700",
            "longitude": "13.4105300"
        },
        "diplomatic-or-consular-headquarters": [
            {
            "name": "Berlin",
            "latitude": "52.5243700",
            "longitude": "13.4105300"
            },
            {
                "name": "Düsseldorf",
                "latitude": "51.2217200",
                "longitude": "6.7761600"
            },
            {
                "name": "Francfort-sur-le-Main",
                "latitude": "50.1155200",
                "longitude": "8.6841700"
            },
            {
                "name": "Hambourg",
                "latitude": "53.5753200",
                "longitude": "10.0153400"
            } ,
            {
                "name": "Munich",
                "latitude": "48.1374300",
                "longitude": "11.5754900"
            },
            {
                "name": "Sarrebruck",
                "latitude": "49.2354000",
                "longitude": "6.9816500"
            } ,
            {
                "name": "Stuttgart",
                "latitude": "48.7823200",
                "longitude": "9.1770200"
            }
        ],
        "observation": ""
    } , 
    {
        "id": 5,
        "shortLabel": "Royaume-Uni",
        "longLabel": "le Royaume-Uni de Grande-Bretagne et d’Irlande du Nord",
        "listLabel": "Royaume-Uni",
        "inhabitant": "Britannique",
        "capital": {
            "name": "Londres",
            "latitude": "51.5085300",
            "longitude": "-0.1257400"
        },
        "diplomatic-or-consular-headquarters": [
            {
                "name": "Londres",
                "latitude": "51.5085300",
                "longitude": "-0.1257400"
            },
            {
            "name": "Édimbourg",
            "latitude": "55.9520600",
            "longitude": "-3.1964800"
            },
            {
                "name": "Glasgow",
                "latitude": "55.8651500",
                "longitude": "-4.2576300"
            },
            {
                "name": "Gibraltar",
                "latitude": "36.1447400",
                "longitude": "-5.3525700"
            }
        ],
        "observation": "1. La forme courante « Grande-Bretagne » est impropre pour désigner l’État.\n 2. Le siège du consulatitude général de France est, solidairement, à Édimbourg et Glasgow."
    } 
]
